iso2,iso3,cnum,country,pays,area,dis_int,landlocked,continent,city_en,city_fr,lat,lon,cap,maincity,citynum,langoff_1,langoff_2,langoff_3,lang20_1,lang20_2,lang20_3,lang20_4,lang9_1,lang9_2,lang9_3,lang9_4,colonizer1,colonizer2,colonizer3,colonizer4,short_colonizer1,short_colonizer2,short_colonizer3
AD,AND,20,Andorra,Andorre,453,8.005398,0.0,Europe,Andorra la Vella,Andorre-la-Vieille,42.5,1.5,1,1,7.0,Catalan,Spanish,,Catalan,Spanish,,,,,,,,,,,,,
AE,ARE,784,United Arab Emirates,Emirats arabes unis,83657,108.788994,0.0,Asia,Abu Dhabi,Abou Dhabi,24.466667,54.416668,1,1,9.0,Arabic,,,Arabic,,,,,,,,GBR,,,,,,
AF,AFG,4,Afghanistan,Afghanistan,652225,303.76135,1.0,Asia,Kabul,Kaboul,34.516666,69.2,1,1,25.0,Persian,,,Persian,Pashtu,,,Hazaragi,Uzbek,,,,,,,GBR,,
AG,ATG,28,Antigua and Barbuda,Antigua-et-Barbuda,442,7.9076047,0.0,America,Saint John's,Saint John's,17.133333,-61.833332,1,1,15.0,English,,,English,Leeward Caribbean Creole English,,,,,,,GBR,,,,,,
AI,AIA,660,Anguilla,Anguilla,102,3.7986903,0.0,America,The Valley,The Valley,18.216667,-63.066666,1,1,2.0,English,,,English,Leeward Caribbean Creole English,,,,,,,GBR,,,,,,
AL,ALB,8,Albania,Albanie,28748,63.773113,0.0,Europe,Tirana,Tirana,41.333332,19.816668,1,1,25.0,Albanian,,,Albanian,,,,,,,,TUR,,,,,,
AM,ARM,51,Armenia,Arménie,29800,64.92948,1.0,Asia,Yerevan,Erevan,40.183334,44.5,1,1,25.0,Armenian,,,Armenian,,,,,,,,TUR,RUS,,,,,
AN,ANT,530,Netherland Antilles,Antilles néerlandaises,960,11.65385,0.0,America,Willemstad,Willemstad,12.1,-68.933334,1,1,5.0,Dutch,Spanish,,Dutch,Papiamento,,,English,,,,NLD,,,,,,
AO,AGO,24,Angola,Angola,1246700,419.96664,0.0,Africa,Luanda,Luanda,-8.833333,13.25,1,1,25.0,Portuguese,,,Portuguese,Umbundu,Mbundu Loanda,,Kongo,,,,PRT,,,,,,
AR,ARG,32,Argentina,Argentine,2766889,625.64746,0.0,America,Buenos Aires,Buenos Aires,-34.666668,-58.5,1,1,25.0,Spanish,,,Spanish,,,,,,,,ESP,,,,,,
AT,AUT,40,Austria,Autriche,83858,108.9196,1.0,Europe,Vienna,Vienne,48.216667,16.366667,1,1,25.0,German,,,German,,,,,,,,,,,,DEU,,
AU,AUS,36,Australia,Australie,7686848,1042.8167,0.0,Pacific,Sydney,Sydney,-33.883335,151.16667,0,1,25.0,English,,,English,,,,,,,,GBR,,,,,,
AU,AUS,36,Australia,Australie,7686848,1042.8167,0.0,Pacific,Canberra,Canberra,-35.3,149.133,1,0,25.0,English,,,English,,,,,,,,GBR,,,,,,
AW,ABW,533,Aruba,Aruba,193,5.2253146,0.0,America,Oranjestad,Oranjestad,12.55,-70.1,1,1,2.0,Dutch,Spanish,,Dutch,English,Papiamento,,,,,,NLD,,,,,,
AZ,AZE,31,Azerbaijan,Azerbaïdjan,86600,110.68601,1.0,Asia,Baku (Baki),Bakou,40.366665,49.883335,1,1,25.0,Azeri,,,Azeri,,,,Talysh,,,,RUS,,,,TUR,,
BA,BIH,70,Bosnia and Herzegovina,Bosnie-Herzégovine,51233,85.13511,0.0,Europe,Sarajevo,Sarajevo,43.866665,18.433332,1,1,25.0,Serbo-Croatian,,,Serbo-Croatian,,,,,,,,TUR,AUT,,,YUG,HUN,
BB,BRB,52,Barbados,Barbade,431,7.8085866,0.0,America,Bridgetown,Bridgetown,13.1,-59.616665,1,1,11.0,English,,,Bajan,English,,,,,,,GBR,,,,,,
BD,BGD,50,Bangladesh,Bangladesh,143998,142.72894,0.0,Asia,Dhaka,Dacca,23.7,90.36667,1,1,25.0,Bengali,,,Bengali,,,,,,,,GBR,,,,,,
BE,BEL,58,Belgium and Luxembourg,Belgique et Luxembourg,33114,68.44467,0.0,Europe,Brussels,Bruxelles,50.833332,4.35,1,1,25.0,Dutch,French,German,Dutch,French,German,,,,,,,,,,NLD,,
BF,BFA,854,Burkina Faso,Burkina Faso,274200,196.95523,1.0,Africa,Ouagadougou,Ouagadougou,12.333333,-1.6666666,1,1,25.0,French,,,French,Mòoré,,,Jula,,,,FRA,,,,,,
BG,BGR,100,Bulgaria,Bulgarie,110994,125.30937,0.0,Europe,Sofia,Sofia,42.666668,23.3,1,1,25.0,Bulgarian,,,Bulgarian,,,,Turkish,,,,TUR,,,,,,
BH,BHR,48,Bahrain,Bahreïn,678,9.793742,0.0,Asia,Manama,Manama,26.2,50.633335,1,1,7.0,Arabic,,,Arabic,,,,,,,,GBR,,,,,,
BI,BDI,108,Burundi,Burundi,27834,62.75114,1.0,Africa,Bujumbura,Bujumbura,-3.3666666,29.316668,1,1,15.0,French,Kirundi,,French,Kirundi,,,,,,,BEL,DEU,,,,,
BJ,BEN,204,Benin,Bénin,112622,126.22501,0.0,Africa,Cotonou,Cotonou,6.4,2.517,2,1,25.0,French,,,French,Fon,,,,,,,FRA,,,,,,
BJ,BEN,204,Benin,Bénin,112622,126.22501,0.0,Africa,Porto-Novo,Porto-Novo,6.5,2.7833333,1,0,25.0,French,,,French,Fon,,,,,,,FRA,,,,,,
BM,BMU,60,Bermuda,Bermudes,53,2.7382414,0.0,America,Hamilton,Hamilton,32.3,-64.8,1,1,2.0,English,,,English,,,,,,,,GBR,,,,,,
BN,BRN,96,Brunei Darussalam,Brunéi Darussalam,5765,28.558372,0.0,Asia,Bandar Seri Begawan,Bandar Seri Begawan,4.9333334,114.96667,1,1,5.0,Malay,,,Malay,,,,,,,,GBR,,,,,,
BO,BOL,68,Bolivia,Bolivie,1098581,394.23016,1.0,America,Sucre,Sucre,-19.083,-65.25,1,0,25.0,Spanish,Quecha,Aymara,Spanish,Quecha,Aymara,,,,,,ESP,,,,,,
BO,BOL,68,Bolivia,Bolivie,1098581,394.23016,1.0,America,La Paz,La Paz,-16.5,-68.166664,2,1,25.0,Spanish,Quecha,Aymara,Spanish,Quecha,Aymara,,,,,,ESP,,,,,,
BR,BRA,76,Brazil,Brésil,8511920,1097.3561,0.0,America,São Paulo,São Paulo,-23.53,-46.63,0,1,25.0,Portuguese,,,Portuguese,,,,,,,,PRT,,,,,,
BR,BRA,76,Brazil,Brésil,8511920,1097.3561,0.0,America,Brasilia,Brasilia,-15.78,-47.91,1,0,25.0,Portuguese,,,Portuguese,,,,,,,,PRT,,,,,,
BS,BHS,44,Bahamas,Bahamas,13939,44.406815,0.0,America,Nassau,Nassau,25.083334,-77.333336,1,1,24.0,English,,,English,Bahamas Creole English,,,,,,,GBR,,,,,,
BT,BTN,64,Bhutan,Bhoutan,46620,81.21195,1.0,Asia,Thimphu,Thimphou,27.533333,89.75,1,1,20.0,Burmese,,,Dzongha,,,,Nepali,Tshangla,,,,,,,GBR,IND,
BW,BWA,72,Botswana,Botswana,600372,291.43655,1.0,Africa,Gaborone,Gaborone,-24.75,25.916666,1,1,25.0,English,,,Tswana,English,,,Kalanga,,,,GBR,,,,,,
BY,BLR,112,Belarus,Biélorussie,207595,171.37294,0.0,Europe,Minsk,Minsk,53.85,27.5,1,1,25.0,Belarussian,,,Belarussian,,,,Russian,,,,RUS,,,,,,
BZ,BLZ,84,Belize,Belize,22963,56.99649,0.0,America,Belmopan,Belmopan,17.216667,-88.8,1,1,9.0,English,Spanish,,Spanish,English,Bileez Kriol,,,,,,GBR,,,,,,
CA,CAN,124,Canada,Canada,9976139,1187.9962,0.0,America,Toronto,Toronto,43.65,-79.38,0,1,25.0,English,French,,English,French,,,,,,,GBR,FRA,,,,,
CA,CAN,124,Canada,Canada,9976139,1187.9962,0.0,America,Ottawa,Ottawa,45.42,-75.71,1,0,25.0,English,French,,English,French,,,,,,,GBR,FRA,,,,,
CC,CCK,166,Cocos (Keeling) Islands,Îles Cocos (Keeling),14,1.4073361,0.0,Pacific,West Island,West Island,-12.5,96.833336,1,1,,Malay,,,English,Malay,,,,,,,GBR,AUS,,,,,
CF,CAF,140,Central African Republic,Centrafricaine (la République),622984,296.87405,1.0,Africa,Bangui,Bangui,4.383333,18.616667,1,1,25.0,French,,,Gbaya,Sango,,,French,,,,FRA,,,,,,
CG,COG,178,Congo,Congo,342000,219.9616,0.0,Africa,Brazzaville,Brazzaville,-4.233333,15.233334,1,1,25.0,French,,,French,Kituba,Kongo,,Lingala,,,,FRA,,,,,,
CH,CHE,757,Switzerland,Suisse,41288,76.42681,1.0,Europe,Bern,Berne,46.95,7.4333334,1,1,25.0,German,French,Italian,German,Alemannisch,French,,Italian,,,,,,,,,,
CI,CIV,384,Côte d'Ivoire,Côte d'Ivoire,322463,213.58647,0.0,Africa,Yamoussoukro,Yamoussoukro,6.82,-5.28,1,0,25.0,French,,,Baoulé,French,Diaoula,,,,,,FRA,,,,,,
CI,CIV,384,Côte d'Ivoire,Côte d'Ivoire,322463,213.58647,0.0,Africa,Abidjan,Abidjan,5.3166666,-4.016667,0,1,25.0,French,,,Baoulé,French,Diaoula,,,,,,FRA,,,,,,
CK,COK,184,Cook Islands,Îles Cook,240,5.826925,0.0,Pacific,Avarua,Avarua,-21.2,-159.76666,1,1,11.0,English,,,English,Maori,,,,,,,GBR,NZL,,,,,
CL,CHL,152,Chile,Chili,756945,327.2397,0.0,America,Santiago,Santiago,-33.5,-70.666664,1,1,25.0,Spanish,,,Spanish,,,,,,,,ESP,,,,,,
CM,CMR,120,Cameroon,Cameroun,475442,259.3478,0.0,Africa,Yaounde,Yaoundé,3.85,11.516666,1,1,25.0,French,English,,French,English,Fang,,Pidgin Cameroon,Beti,,,FRA,,,,,,
CN,CHN,156,China,Chine,9572378,1163.7072,0.0,Asia,Beijing,Pékin,39.916668,116.433334,1,1,25.0,Chinese,,,Chinese Mandarin,,,,Chinese Wu,Chinese Yue,,,,,,,,,
CO,COL,170,Colombia,Colombie,1141748,401.90085,0.0,America,Bogota,Bogota,4.633333,-75.066666,1,1,25.0,Spanish,,,Spanish,,,,,,,,ESP,,,,,,
CR,CRI,188,Costa Rica,Costa Rica,51076,85.00456,0.0,America,San Jose,San José,9.983334,-84.066666,1,1,25.0,Spanish,,,Spanish,,,,,,,,ESP,,,,,,
CU,CUB,192,Cuba,Cuba,110861,125.234276,0.0,America,Havana,La Havane,23.116667,-82.416664,1,1,25.0,Spanish,,,Spanish,,,,,,,,ESP,,,,USA,,
CV,CPV,132,Cape Verde,Cap-Vert,4033,23.886248,0.0,Africa,Praia,Praia,14.916667,-23.5,1,1,15.0,Portuguese,,,Portuguese,Kabuverdianu,,,,,,,PRT,,,,,,
CX,CXR,162,Christmas Island,Île Christmas,135,4.370194,0.0,Pacific,The Settlement,The Settlement,-10.416667,105.71667,1,1,,English,,,English,,,,,,,,GBR,AUS,,,,,
CY,CYP,196,Cyprus,Chypre,9251,36.176632,0.0,Europe,Nicosia,Nicosie,35.15,33.35,1,1,25.0,Greek,Turkish,,Greek,Turkish,,,,,,,GBR,TUR,GRC,,,,
CZ,CZE,203,Czech Republic,Tchèque (la République),78864,105.62658,1.0,Europe,Prague,Prague,50.1,14.433333,1,1,25.0,Czech,,,Czech,,,,,,,,AUT,,,,HUN,,
DE,DEU,276,Germany,Allemagne,357325,224.83582,0.0,Europe,Essen,Essen,51.467,6.983,0,1,25.0,German,,,German,,,,,,,,,,,,,,
DE,DEU,276,Germany,Allemagne,357325,224.83582,0.0,Europe,Berlin,Berlin,52.533,13.417,1,0,25.0,German,,,German,,,,,,,,,,,,,,
DJ,DJI,262,Djibouti,Djibouti,23200,57.289864,0.0,Africa,Djibouti,Djibouti,11.6,43.15,1,1,5.0,French,Arabic,,Afar,Somali,,,Arabic,French,,,FRA,,,,,,
DK,DNK,208,Denmark,Danemark,43094,78.08043,0.0,Europe,Copenhagen,Copenhague,55.666668,12.583333,1,1,25.0,Danish,,,Danish,,,,,,,,,,,,,,
DM,DMA,212,Dominica,Dominique,751,10.30751,0.0,America,Roseau,Roseau,15.3,-61.383335,1,1,22.0,English,French,,English,Lesser Antillean Creole French,,,,,,,GBR,,,,FRA,,
DO,DOM,214,Dominican Republic,Dominicaine (la République),48734,83.03283,0.0,America,Santo Domingo,Saint-Domingue,18.5,-69.78333,1,1,25.0,Spanish,,,Spanish,,,,,,,,FRA,HTI,,,ESP,,
DZ,DZA,12,Algeria,Algérie,2381741,580.47174,0.0,Africa,Algiers,Alger,36.833332,3.0,1,1,25.0,Arabic,French,,Arabic,French,,,Kabyle,,,,FRA,,,,,,
EC,ECU,218,Ecuador,Equateur,275716,197.49895,0.0,America,Quito,Quito,-0.23333333,-78.5,1,1,25.0,Spanish,,,Spanish,Quichua,,,,,,,ESP,,,,,,
EE,EST,233,Estonia,Estonie,45227,79.98945,0.0,Europe,Tallinn,Tallinn,59.416668,24.75,1,1,25.0,Estonian,,,Estonian,,,,,,,,RUS,SWE,,,,,
EG,EGY,818,Egypt,Egypte,1001449,376.3988,0.0,Africa,Cairo,Le Caire,30.05,31.25,1,1,25.0,Arabic,,,Arabic,English,,,,,,,GBR,TUR,,,,,
EH,ESH,732,Western Sahara,Sahara occidental,266000,193.98788,0.0,Africa,none,El Aioun,27.166666,-13.183333,1,1,4.0,Arabic,,,Arabic,,,,,,,,ESP,MAR,,,,,
ER,ERI,232,Eritrea,Erythrée,121320,131.00867,0.0,Africa,Asmara,Asmara,15.333333,38.883335,1,1,18.0,English,,,Tigrigna,Tigré,English,Arabic,Afar,,,,GBR,,,,ITA,ETH,
ES,ESP,724,Spain,Espagne,505954,267.54037,0.0,Europe,Madrid,Madrid,40.416668,-3.7166667,1,1,25.0,Spanish,,,Spanish,Catalan,,,Galician,,,,,,,,,,
ET,ETH,231,Ethiopia,Ethiopie,1127127,399.31924,1.0,Africa,Addis Ababa,Addis Abeba,9.05,38.833332,1,1,25.0,Amharic,Tigrigna,English,Amharic,Oromo,,,,,,,,,,,ITA,,
FI,FIN,246,Finland,Finlande,336593,218.21588,0.0,Europe,Helsinki,Helsinki,60.133335,25.0,1,1,25.0,Swedish,,,Finnish,,,,,,,,RUS,SWE,,,,,
FJ,FJI,242,Fiji,Fidji,18333,50.92729,0.0,Pacific,Suva,Suva,-18.133333,178.41667,1,1,22.0,English,,,English,Fijian,Hindustani Fijian,,,,,,GBR,,,,,,
FK,FLK,238,Falkland Islands,Îles Falkland,12173,41.49852,0.0,America,Stanley,Stanley,-51.7,-57.85,1,1,4.0,English,,,English,,,,,,,,GBR,ESP,,,AUT,,
FM,FSM,583,Micronesia (Federated States of),Micronésie (Etats fédérés de),707,10.001002,0.0,Pacific,Palikir,Palikir,6.9166665,158.25,1,1,6.0,English,,,Chuukese,Pohnpeian,English,,,,,,ESP,DEU,USA,JPN,,,
FO,FRO,234,Faroe Islands,Îles Féroé,1399,14.068334,0.0,Europe,Torshavn,Torshavn,62.016666,-6.766667,1,1,14.0,Faroese,Danish,,Faroese,Danish,,,,,,,DNK,,,,,,
FR,FRA,251,France,France,547026,278.18762,0.0,Europe,Paris,Paris,48.866665,2.3333333,1,1,25.0,French,,,French,,,,,,,,,,,,,,
GA,GAB,266,Gabon,Gabon,267667,194.5948,0.0,Africa,Libreville,Libreville,0.38333333,9.416667,1,1,25.0,French,,,Fang,French,,,Mbere,Punu,,,FRA,,,,,,
GB,GBR,826,United Kingdom,Royaume-Uni,244110,185.83461,0.0,Europe,London,Londres,51.5,-0.16666667,1,1,25.0,English,,,English,,,,,,,,,,,,,,
GD,GRD,308,Grenada,Grenade,345,6.9862375,0.0,America,Saint George's,Saint-Georges,12.066667,-61.733334,1,1,7.0,English,,,English,Windward Caribbean Creole English,,,,,,,GBR,,,,FRA,,
GE,GEO,268,Georgia,Géorgie,69700,99.30022,0.0,Asia,Tbilisi,Tbilissi,41.716667,44.816666,1,1,25.0,Georgian,,,Georgian,,,,Mingrelian,,,,RUS,,,,TUR,,
GF,GUF,254,French Guiana,Guyane française,91000,113.463066,0.0,America,Cayenne,Cayenne,4.9333334,-52.333332,1,1,15.0,French,,,French,,,,,,,,FRA,,,,,,
GH,GHA,288,Ghana,Ghana,238538,183.70145,0.0,Africa,Accra,Accra,5.55,-0.25,1,1,25.0,English,,,Akan,,,,English,Éwé,,,GBR,,,,,,
GI,GIB,292,Gibraltar,Gibraltar,7,0.9951369,0.0,Europe,Gibraltar,Gibraltar,36.133335,-5.35,1,1,1.0,English,Spanish,,English,Spanish,,,,,,,GBR,,,,ESP,,
GL,GRL,304,Greenland,Groenland,2166086,553.56885,0.0,America,Nuuk (Godthab),Godthab,64.183334,-51.733334,1,1,25.0,Greenlandic,Danish,,Greenlandic,,,,Danish,,,,DNK,,,,,,
GM,GMB,270,Gambia,Gambie,11295,39.973938,0.0,Africa,Banjul,Banjul,13.466666,-16.65,1,1,20.0,English,,,English,Mandinka,Pulaar,,Wolof,,,,GBR,,,,,,
GN,GIN,324,Guinea,Guinée,245857,186.4984,0.0,Africa,Conakry,Conakry,9.516666,-15.716666,1,1,25.0,French,,,French,Pulaar,Maninka,,Susu,,,,FRA,,,,,,
GP,GLP,312,Guadeloupe,Guadeloupe,1780,15.86879,0.0,America,Basse-Terre,Basse-Terre,16.0,-61.733334,1,1,25.0,French,,,French,Lesser Antillean Creole French,,,Virgin Islands Creole English,,,,FRA,,,,,,
GQ,GNQ,226,Equatorial Guinea,Guinée équatoriale,28051,62.995274,0.0,Africa,Malabo,Malabo,3.75,8.8,1,1,16.0,Spanish,French,,Fang,Spanish,,,Bube,,,,ESP,,,,,,
GR,GRC,300,Greece,Grèce,131621,136.45718,0.0,Europe,Athens,Athènes,38.0,23.733334,1,1,25.0,Greek,,,Greek,,,,,,,,TUR,,,,,,
GT,GTM,320,Guatemala,Guatemala,108889,124.11544,0.0,America,Guatemala,Guatemala,14.633333,-90.51667,1,1,25.0,Spanish,,,Spanish,,,,,,,,ESP,,,,,,
GW,GNB,624,Guinea-Bissau,Guinée-Bissau,36125,71.488754,0.0,Africa,Bissau,Bissau,11.866667,-15.65,1,1,14.0,Portuguese,,,Balanta,Madjank,Crioulo Upper Guinea,,Mandinka,,,,PRT,,,,,,
GY,GUY,328,Guyana,Guyana,214970,174.39046,0.0,America,Georgetown,Georgetown,6.766667,-58.166668,1,1,25.0,English,,,English,Hindustani Caribbean,Guyanese Creole English,,,,,,GBR,,,,NLD,,
HK,HKG,344,Hong Kong,Hong-Kong,1092,12.4292555,0.0,Asia,Victoria,Victoria,22.266666,114.15,1,1,7.0,English,Chinese,,English,Chinese Yue,,,,,,,GBR,,,,,,
HN,HND,340,Honduras,Honduras,112088,125.92541,0.0,America,Tegucigalpa,Tegucigalpa,14.083333,-87.23333,1,1,25.0,Spanish,,,Spanish,,,,,,,,ESP,,,,,,
HR,HRV,191,Croatia,Croatie,56538,89.43428,0.0,Europe,Zagreb,Zagreb,45.8,15.966666,1,1,25.0,Serbo-Croatian,,,Serbo-Croatian,,,,,,,,AUT,,,,YUG,HUN,
HT,HTI,332,Haiti,Haïti,27750,62.65638,0.0,America,Port-au-Prince,Port-au-Prince,18.55,-72.333336,1,1,25.0,French,,,Haitian Creole French,,,,,,,,,,,,FRA,ESP,
HU,HUN,348,Hungary,Hongrie,93032,114.72286,1.0,Europe,Budapest,Budapest,47.5,19.05,1,1,25.0,Hungarian,,,Hungarian,,,,,,,,,,,,,,
ID,IDN,360,Indonesia,Indonésie,1933658,523.0264,0.0,Asia,Jakarta,Jakarta,-6.133333,106.75,1,1,25.0,Indonesian,,,Indonesian,Malay,Javanese,,Sunda,,,,NLD,,,,,,
IE,IRL,372,Ireland,Irlande,70285,99.716064,0.0,Europe,Dublin,Dublin,53.333332,-6.25,1,1,25.0,English,,,English,Irish,,,,,,,GBR,,,,,,
IL,ISR,376,Israel,Israël,21621,55.305927,0.0,Asia,Tel Aviv,Tel Aviv,32.083332,34.766666,1,1,25.0,Hebrew,English,,Hebrew,Arabic,English,French,Russian,,,,GBR,TUR,,,POL,,
IN,IND,699,India,Inde,3287590,681.98157,0.0,Asia,New Delhi,New Delhi,28.616667,77.21667,1,1,25.0,English,Hindi,,Hindi,English,,,Marathi,Telugu,Bengali,,GBR,,,,,,
IQ,IRQ,368,Iraq,Iraq,437072,248.6625,0.0,Asia,Baghdad,Bagdad,33.333332,44.433334,1,1,25.0,Arabic,,,Arabic,Kurdish,,,,,,,TUR,,,,GBR,,
IR,IRN,364,Iran,Iran,1648100,482.86484,0.0,Asia,Tehran,Téhéran,35.666668,51.433334,1,1,25.0,Persian,,,Persian,Azeri,,,,,,,,,,,,,
IS,ISL,352,Iceland,Islande,102819,120.60644,0.0,Europe,Reykjavik,Reykjavik,64.15,-21.966667,1,1,25.0,Icelandic,,,Icelandic,,,,,,,,DNK,,,,,,
IT,ITA,381,Italy,Italie,301323,206.46666,0.0,Europe,Rome,Rome,41.883335,12.5,1,1,25.0,Italian,,,Italian,,,,Lombard,Napoletano-Calabrese,,,,,,,,,
JM,JAM,388,Jamaica,Jamaïque,10991,39.432327,0.0,America,Kingston,Kingston,17.966667,-76.8,1,1,25.0,English,,,English,,,,,,,,GBR,,,,,,
JO,JOR,400,Jordan,Jordanie,91862,113.99918,0.0,Asia,Amman,Amman,31.95,35.933334,1,1,25.0,Arabic,,,Arabic,English,,,,,,,GBR,,,,,,
JP,JPN,392,Japan,Japon,377801,231.18803,0.0,Asia,Tokyo,Tokyo,35.666668,139.75,1,1,25.0,Japanese,,,Japanese,,,,,,,,,,,,,,
KE,KEN,404,Kenya,Kenya,582646,287.102,0.0,Africa,Nairobi,Nairobi,-1.2833333,36.833332,1,1,25.0,English,Swahili,,English,Swahili,Gikuyu,,Luo,Luyia,Kalenjin,Kamba,GBR,,,,,,
KG,KGZ,417,Kyrgyzstan,Kirghizistan,198500,167.57686,1.0,Asia,Bishkek,Bichkek,42.9,74.6,1,1,25.0,Kyrgyz,Russian,,Kyrgyz,Russian,,,,,,,RUS,,,,,,
KH,KHM,116,Cambodia,Cambodge,181035,160.03503,0.0,Asia,Phnom Penh,Phnom Penh,11.583333,104.916664,1,1,24.0,Khmer,,,Khmer,,,,,,,,FRA,,,,,,
KI,KIR,296,Kiribati,Kiribati,717,10.071482,0.0,Pacific,Tarawa (Bairiki),Bairiki,1.3833333,173.15,1,1,25.0,English,,,English,I-Kiribati,,,,,,,GBR,,,,,,
KM,COM,174,Comoros,Comores,1862,16.230192,0.0,Africa,Moroni,Moroni,-11.666667,43.266666,1,1,5.0,Arabic,French,,Comorian,,,,French,,,,FRA,,,,,,
KN,KNA,659,Saint Kitts and Nevis,Saint-Christophe-et-Niévès,269,6.1689315,0.0,America,Basseterre,Basseterre,17.283333,-62.716667,1,1,17.0,English,,,English,Leeward Caribbean Creole English,,,,,,,GBR,,,,,,
KP,PRK,408,"Korea, Dem. People's Rep. of",Corée du Nord,120538,130.58575,0.0,Asia,Pyongyang,Pyongyang,39.0,125.78333,1,1,15.0,Korean,,,Korean,,,,,,,,JPN,,,,,,
KR,KOR,410,Korea,Corée du Sud,99484,118.63434,0.0,Asia,Seoul,Séoul,37.5,127.0,1,1,25.0,Korean,,,Korean,English,,,,,,,JPN,,,,,,
KW,KWT,414,Kuwait,Koweït,17818,50.206886,0.0,Asia,Kuwait,Koweït,29.333334,48.0,1,1,25.0,Arabic,,,Arabic,English,,,,,,,GBR,,,,,,
KY,CYM,136,Cayman Islands,Îles Caïmans,262,6.0881376,0.0,America,George Town,George Town,19.3,-81.38333,1,1,3.0,English,,,English,Cayman Islands English,,,,,,,GBR,,,,,,
KZ,KAZ,398,Kazakstan,Kazakstan,2717300,620.01556,1.0,Asia,Alma-Ata (Almaty),Alma-Ata (Almaty),43.25,76.95,2,1,25.0,Kazakh,Russian,,Kazakh,Russian,,,,,,,RUS,,,,,,
KZ,KAZ,398,Kazakstan,Kazakstan,2717300,620.01556,1.0,Asia,Astana,Astana,51.17,71.47,1,0,25.0,Kazakh,Russian,,Kazakh,Russian,,,,,,,RUS,,,,,,
LA,LAO,418,Lao People's Democratic Republic,"Lao, Rép. dém. Pop.",236800,183.031,1.0,Asia,Vientiane,Vientiane,17.983334,102.63333,1,1,23.0,Lao,,,Thai,,,,Khmu,,,,FRA,,,,,,
LB,LBN,422,Lebanon,Liban,10452,38.45329,0.0,Asia,Beirut,Beyrouth,33.866665,35.5,1,1,19.0,Arabic,French,,Arabic,French,English,,,,,,FRA,,,,,,
LC,LCA,662,Saint Lucia,Sainte-Lucie,617,9.342786,0.0,America,Castries,Castries,14.016666,-60.983334,1,1,12.0,English,,,English,Lesser Antillean Creole French,,,,,,,GBR,,,,,,
LK,LKA,144,Sri Lanka,Sri Lanka,65610,96.342705,0.0,Asia,Colombo,Colombo,6.9166665,79.86667,1,1,25.0,Sinhala,,,Sinhala,,,,Tamil,,,,GBR,,,,NLD,,
LR,LBR,430,Liberia,Libéria,111369,125.520874,0.0,Africa,Monrovia,Monrovia,6.3333335,-10.766666,1,1,18.0,English,,,English,,,,Bassa,Kpelle,,,FRA,,,,,,
LS,LSO,426,Lesotho,Lesotho,30355,65.53132,1.0,Africa,Maseru,Maseru,-29.316668,27.483334,1,1,11.0,English,Sesotho,,English,Sesotho,,,,,,,GBR,,,,,,
LT,LTU,440,Lithuania,Lituanie,65300,96.11483,0.0,Europe,Vilnius,Vilnius,54.683334,25.316668,1,1,25.0,Lithuanian,,,Lithuanian,,,,,,,,RUS,,,,,,
LU,LUX,442,Luxembourg,Luxembourg,2586,19.127052,1.0,Europe,Luxembourg,Luxembourg,49.6,6.15,1,1,25.0,French,German,Luxembourgish,Luxembourgish,,,,,,,,NLD,,,,,,
LV,LVA,428,Latvia,Lettonie,64589,95.59013,0.0,Europe,Riga,Riga,56.95,24.1,1,1,25.0,Latvian,,,Latvian,,,,,,,,RUS,,,,SWE,,
LY,LBY,434,Libyan Arab Jamahiriya,Libye,1759540,498.92282,0.0,Africa,Tripoli,Tripoli,32.733334,13.116667,1,1,25.0,Arabic,,,Arabic,,,,,,,,TUR,ITA,,,,,
MA,MAR,504,Morocco,Maroc,710850,317.1194,0.0,Africa,Rabat,Rabat,34.033333,-6.85,1,1,25.0,Arabic,French,,Arabic,French,,,Tachelhit,Tamazghit,,,FRA,,,,,,
MD,MDA,498,"Moldova, Rep.of",Moldavie,33700,69.04763,0.0,Europe,Chisinau,Chisinau,47.0,28.833334,1,1,25.0,Romanian,,,Romanian,,,,Bulgarian,,,,RUS,,,,,,
MG,MDG,450,Madagascar,Madagascar,587041,288.18277,0.0,Africa,Antananarivo,Tananarive,-18.866667,47.5,1,1,25.0,French,,,Malagasy,French,,,,,,,FRA,,,,,,
MH,MHL,584,Marshall Islands,Marshall,181,5.060263,0.0,Pacific,Majuro,Delap-Uliga-Darrit,7.15,171.2,1,1,3.0,English,,,English,Marshallese,,,,,,,,,,,,,
MK,MKD,807,Macedonia (the former Yugoslav Rep. of),Macédoine,25713,60.312897,1.0,Europe,Skopje,Skopje,42.0,21.466667,1,1,25.0,Macedonian,,,Macedonian,,,,Albanian,,,,TUR,,,,YUG,,
ML,MLI,466,Mali,Mali,1240142,418.8606,1.0,Africa,Bamako,Bamako,12.666667,-7.983333,1,1,25.0,French,,,Bambara,,,,Fulfulde,Senoufo,,,FRA,,,,,,
MM,MMR,104,Burma,Birmanie,678500,309.8195,0.0,Asia,Rangoon,Rangoon,16.783333,96.166664,1,1,25.0,Burmese,,,Burmese,,,,,,,,GBR,,,,IND,,
MN,MNG,496,Mongolia,Mongolie,1565500,470.60913,1.0,Asia,Ulaanbaatar,Oulan-Bator,47.9,106.86667,1,1,25.0,Mongolian,,,Mongolian,,,,,,,,CHN,,,,,,
MO,MAC,446,Macau (Aomen),Macao (Aomen),25,1.8806319,0.0,Asia,Aomen,Aomen,22.27,113.56,1,1,,Portuguese,Chinese,,Portuguese,Chinese Yue,,,,,,,PRT,,,,,,
MP,MNP,580,Northern Mariana Islands,Îles Mariannes du Nord,477,8.214725,0.0,Pacific,Saipan,Saipan,15.2,145.75,1,1,15.0,English,,,English,Chamorro,,,,,,,ESP,DEU,USA,JPN,,,
MQ,MTQ,474,Martinique,Martinique,1100,12.474701,0.0,America,Fort-de-France,Fort-de-France,14.6,-61.083332,1,1,21.0,French,,,French,Lesser Antillean Creole French,,,,,,,FRA,,,,,,
MR,MRT,478,Mauritania,Mauritanie,1030700,381.8563,0.0,Africa,Nouakchott,Nouakchott,18.15,-15.966666,1,1,20.0,Arabic,,,Hassaniya Arabic,,,,,,,,FRA,,,,,,
MS,MSR,500,Montserrat,Montserrat,102,3.7986903,0.0,America,Plymouth,Plymouth,16.7,-62.216667,1,1,,English,,,English,Leeward Caribbean Creole English,,,,,,,GBR,,,,,,
MT,MLT,470,Malta,Malte,316,6.686169,0.0,Europe,Valletta,La Valette,35.9,14.533334,1,1,25.0,English,,,Maltese,English,,,,,,,GBR,,,,,,
MU,MUS,480,Mauritius,Maurice,2045,17.009066,0.0,Africa,Port Louis,Port Louis,-20.166666,57.5,1,1,25.0,English,French,,Morisyen,French,,,English,,,,GBR,,,,FRA,NLD,
MV,MDV,462,Maldives,Maldives,298,6.492948,0.0,Asia,Male,Malé,4.1666665,73.46667,1,1,25.0,Maldivian,,,Maldivian,,,,,,,,GBR,,,,,,
MW,MWI,454,Malawi,Malawi,118484,129.46837,1.0,Africa,Lilongwe,Lilongwe,-13.966666,33.816666,1,1,25.0,English,,,Chichewa,,,,Lomwé,Yao,English,,GBR,,,,,,
MX,MEX,484,Mexico,Mexique,1967210,527.54456,0.0,America,Mexico (Distrito Federal),Mexico,19.416666,-99.166664,1,1,25.0,Spanish,,,Spanish,,,,,,,,ESP,,,,,,
MY,MYS,458,Malaysia,Malaisie,329758,215.98892,0.0,Asia,Kuala Lumpur,Kuala Lumpur,3.1333334,101.7,1,1,25.0,Malay,Chinese,,Malay,Chinese Min Nan,,,Tamoul,Chinese Yue,Chinese Hakka,,GBR,,,,,,
MZ,MOZ,508,Mozambique,Mozambique,801590,336.75183,0.0,Africa,Maputo,Maputo,-25.966667,32.583332,1,1,25.0,Portuguese,,,Macua,Portuguese,,,Tsonga,,,,PRT,,,,,,
NA,NAM,516,Namibia,Namibie,825518,341.741,0.0,Africa,Windhoek,Windhoeck,-22.566668,17.1,1,1,25.0,English,,,English,Kwanyama,,,Afrikaans,,,,DEU,ZAF,,,,,
NC,NCL,540,New Caledonia,Nouvelle-Calédonie,19060,51.927242,0.0,Pacific,Noumea,Nouméa,-22.266666,166.45,1,1,25.0,French,,,French,,,,,,,,FRA,,,,,,
NE,NER,562,Niger,Niger,1267000,423.37198,1.0,Africa,Niamey,Niamey,13.533334,2.0833333,1,1,25.0,French,Arabic,,Hausa,Zarma,French,,,,,,FRA,,,,,,
NF,NFK,574,Norfolk Island,Île Norfolk,35,2.2251937,0.0,Pacific,Kingston,Kingston,-29.05,167.96666,1,1,1.0,English,,,English,,,,,,,,,,,,GBR,,
NG,NGA,566,Nigeria,Nigéria,923768,361.5058,0.0,Africa,Abuja,Abuja,9.18,7.17,1,0,25.0,English,,,Yorouba,Hausa,English,,Igbo,,,,GBR,,,,,,
NG,NGA,566,Nigeria,Nigéria,923768,361.5058,0.0,Africa,Lagos,Lagos,6.45,3.4666667,2,1,25.0,English,,,Yorouba,Hausa,English,,Igbo,,,,GBR,,,,,,
NI,NIC,558,Nicaragua,Nicaragua,130670,135.96332,0.0,America,Managua,Managua,12.1,-86.3,1,1,25.0,Spanish,,,Spanish,,,,,,,,ESP,,,,,,
NL,NLD,528,Netherlands,Pays-Bas,41863,76.95715,0.0,Europe,Amsterdam,Amsterdam,52.35,4.9,1,1,25.0,Dutch,,,Dutch,,,,,,,,,,,,ESP,,
NO,NOR,579,Norway,Norvège,323752,214.01294,0.0,Europe,Oslo,Oslo,59.916668,10.75,1,1,25.0,Norwegian,,,Norwegian,,,,,,,,,,,,DNK,,
NP,NPL,524,Nepal,Népal,147181,144.29779,1.0,Asia,Kathmandu,Katmandou,27.7,85.316666,1,1,25.0,Nepali,,,Nepali,,,,Maithili,,,,,,,,,,
NR,NRU,520,Nauru,Nauru,21,1.7236277,0.0,Pacific,Yaren,Yaren,-0.53333336,166.91667,1,1,1.0,Nauruan,English,,Nauruan,English,,,,,,,GBR,DEU,AUS,,JPN,,
NU,NIU,570,Niue,Nioué,260,6.0648556,0.0,Pacific,Alofi,Alofi,-19.016666,-169.91667,1,1,13.0,Niuean,English,,Niuean,English,,,,,,,GBR,NZL,,,,,
NZ,NZL,554,New Zealand,Nouvelle-Zélande,268676,194.96123,0.0,Pacific,Wellington,Wellington,-44.283333,174.78334,1,1,25.0,English,,,English,,,,,,,,GBR,,,,,,
OM,OMN,512,Oman,Oman,212379,173.33633,0.0,Asia,Muscat,Mascate,23.616667,58.633335,1,1,25.0,Arabic,,,Arabic,,,,Balochi Southern,,,,,,,,ESP,,
PA,PAN,591,Panama,Panama,75648,103.450485,0.0,America,Panama,Panama,8.95,-79.5,1,1,25.0,Spanish,,,Spanish,,,,,,,,ESP,,,,COL,,
PE,PER,604,Peru,Pérou,1285216,426.40457,0.0,America,Lima,Lima,-12.1,-77.05,1,1,25.0,Spanish,,,Spanish,,,,Quecha,,,,ESP,,,,,,
PF,PYF,258,French Polynesia,Polynésie française,4167,24.279825,0.0,Pacific,Papeete,Papeete,-17.533333,-149.56667,1,1,25.0,French,,,French,Tahitian,,,Tuamotan,,,,FRA,,,,,,
PG,PNG,598,Papua New Guinea,Papouasie-Nouvelle-Guinée,462840,255.8876,0.0,Pacific,Port Moresby,Port Moresby,-9.5,147.11667,1,1,25.0,English,Hiri Motu,Tok Pisin,Tok Pisin,,,,Motu,English,,,GBR,DEU,AUS,,,,
PH,PHL,608,Philippines,Philippines,300000,206.01291,0.0,Asia,Manila,Manille,14.616667,120.96667,1,1,25.0,English,,,English,Filipino,Cebuano,,Hiligaynon,Ilocano,,,ESP,USA,,,,,
PK,PAK,586,Pakistan,Pakistan,882872,353.41312,0.0,Asia,Islamabad,Islamabad,33.666668,73.13333,1,1,25.0,Urdu,Sindhi,English,Urdu,Punjabi,English,Sindhi,,,,,GBR,,,,,,
PL,POL,616,Poland,Pologne,312685,210.32327,0.0,Europe,Warsaw,Varsovie,52.25,21.0,1,1,25.0,Polish,,,Polish,,,,,,,,DEU,,,,RUS,,
PM,SPM,666,St. Pierre and Miquelon,Saint-Pierre-et-Miquelon,242,5.8511534,0.0,America,Saint Pierre,Saint-Pierre,46.666668,-56.166668,1,1,2.0,French,,,French,,,,,,,,FRA,,,,,,
PN,PCN,612,Pitcairn,Pitcairn,47,2.5785925,0.0,Pacific,Adamstown,Adamstown,-25.066668,-130.08333,1,1,,English,,,English,,,,,,,,GBR,,,,,,
PR,PRI,630,Puerto Rico,Porto Rico,9104,35.888054,0.0,America,San Juan,San Juan,18.44,-66.13,1,1,25.0,English,Spanish,,English,Spanish,,,,,,,ESP,USA,,,,,
PS,PAL,931,Palestine,Palestine,6256,29.749672,0.0,Asia,Gaza,Gaza,31.53,34.44,1,1,25.0,Arabic,,,Arabic,,,,,,,,GBR,TUR,,,,,
PT,PRT,620,Portugal,Portugal,92389,114.32572,0.0,Europe,Lisbon,Lisbonne,38.733334,-9.133333,1,1,25.0,Portuguese,,,Portuguese,,,,,,,,,,,,,,
PW,PLW,585,Palau,Palaos,487,8.300385,0.0,Pacific,Koror,Koror,7.3333335,134.48334,1,1,17.0,English,,,English,Palauan,,,,,,,GBR,DEU,USA,JPN,,,
PY,PRY,600,Paraguay,Paraguay,406752,239.88255,1.0,America,Asuncion,Asuncion,-25.25,-57.666668,1,1,25.0,Spanish,,,Guarani,Spanish,,,,,,,ESP,,,,,,
QA,QAT,634,Qatar,Qatar,11437,40.224426,0.0,Asia,Doha,Doha,25.25,51.533333,1,1,13.0,Arabic,Persian,,Arabic,Persian,,,,,,,GBR,,,,,,
RE,REU,638,Reunion,Réunion,2517,18.870153,0.0,Africa,Saint-Denis,Saint-Denis,-20.866667,55.466667,1,1,23.0,French,,,French,Tamoul,Réunion Creole French,,,,,,FRA,,,,,,
RO,ROM,642,Romania,Roumanie,238391,183.64484,0.0,Europe,Bucharest,Bucarest,44.416668,26.116667,1,1,25.0,Romanian,,,Romanian,,,,Hungarian,,,,,,,,TUR,AUT,HUN
RU,RUS,643,Russian Federation,Russie,17075400,1554.2441,0.0,Asia,Moscow,Moscou,55.75,37.7,1,1,25.0,Russian,,,Russian,,,,,,,,,,,,,,
RW,RWA,646,Rwanda,Rwanda,26338,61.0415,1.0,Africa,Kigali,Kigali,-1.9333333,30.066668,1,1,12.0,French,English,Rwanda,Rwanda,English,,,French,,,,BEL,DEU,,,,,
SA,SAU,682,Saudi Arabia,Arabie saoudite,2153168,551.9157,0.0,Asia,Riyadh,Riyad,24.65,46.766666,1,1,25.0,Arabic,,,Arabic,,,,,,,,,,,,,,
SB,SLB,90,Solomon Islands,Îles Salomon,29785,64.91314,0.0,Pacific,Honiara,Honiara,-9.466666,159.95,1,1,9.0,English,,,Solomons Pidgin,,,,,,,,GBR,,,,,,
SC,SYC,690,Seychelles,Seychelles,455,8.02305,0.0,Africa,Victoria,Victoria,-4.633333,55.466667,1,1,5.0,English,French,,Seselwa Creole French,French,English,,,,,,GBR,FRA,,,,,
SD,SDN,736,Sudan,Soudan,2505813,595.39905,0.0,Africa,Khartoum,Khartoum,15.55,32.533333,1,1,25.0,Arabic,,,Arabic,,,,,,,,GBR,EGY,,,,,
SE,SWE,752,Sweden,Suède,449964,252.30316,0.0,Europe,Stockholm,Stockholm,59.333332,18.083334,1,1,25.0,Swedish,,,Swedish,,,,Skane,,,,,,,,,,
SG,SGP,702,Singapore,Singapour,646,9.559828,0.0,Asia,Singapore,Singapour,1.2833333,103.85,1,1,1.0,English,Chinese,,English,Chinese Min Nan,,,Chinese Yue,Malay,,,GBR,,,,,,
SH,SHN,654,Saint Helena,Sainte-Hélène,410,7.6159787,0.0,Africa,Jamestown,Jamestown,-15.916667,-5.7,1,1,4.0,English,,,English,,,,,,,,GBR,,,,,,
SI,SVN,705,Slovenia,Slovénie,20256,53.53165,0.0,Europe,Ljubljana,Ljubljana,46.066666,14.5,1,1,25.0,Slovenian,,,Slovenian,,,,,,,,AUT,,,,YUG,HUN,
SK,SVK,703,Slovakia,Slovaquie,49036,83.2897,1.0,Europe,Bratislava,Bratislava,48.166668,17.166666,1,1,25.0,Slovak,,,Slovak,,,,Hungarian,,,,HUN,,,,,,
SL,SLE,694,Sierra Leone,Sierra Leone,73326,101.85042,0.0,Africa,Freetown,Freetown,8.5,-13.283334,1,1,25.0,English,,,English,,,,,,,,GBR,,,,,,
SM,SMR,674,San Marino,Saint-Marin,61,2.937641,0.0,Europe,Serravalle,Serravalle,43.95,12.49,1,1,9.0,Italian,,,Italian,Emiliano-Romagnolo,,,,,,,,,,,,,
SN,SEN,686,Senegal,Sénégal,196722,166.82466,0.0,Africa,Dakar,Dakar,14.633333,-17.45,1,1,25.0,French,,,French,Wolof,Pulaar,,Serer-Sine,,,,FRA,,,,,,
SO,SOM,706,Somalia,Somalie,637657,300.34982,0.0,Africa,Mogadishu,Muqdisho (Mogadiscio),2.0333333,45.35,1,1,25.0,Somali,English,Arabic,Somali,,,,,,,,GBR,ITA,,,,,
SR,SUR,740,Suriname,Suriname,163820,152.23596,0.0,America,Paramaribo,Paramaribo,5.866667,-55.233334,1,1,14.0,Dutch,Hindi,,Dutch,Hindustani Caribbean,Sranan,,Javanese Caribbean,,,,NLD,,,,,,
ST,STP,678,Sao Tome and Principe,Sao Tomé-et-Principe,964,11.678103,0.0,Africa,Sao Tome,Sao Tomé,0.2,6.7166667,1,1,6.0,Portuguese,,,Portuguese,Sãotomense,,,,,,,PRT,,,,,,
SV,SLV,222,El Salvador,Salvador,21041,54.559074,0.0,America,San Salvador,San Salvador,13.666667,-89.166664,1,1,25.0,Spanish,,,Spanish,,,,,,,,ESP,,,,,,
SY,SYR,760,Syrian Arab Republic,Syrie,184004,161.342,0.0,Asia,Damascus,Damas,33.5,36.316666,1,1,25.0,Arabic,,,Arabic,,,,,,,,FRA,TUR,,,,,
SZ,SWZ,748,Swaziland,Swaziland,17364,49.563126,1.0,Africa,Mbabane,Mbabane,-26.333334,31.133333,1,1,25.0,Swati,English,,Swati,,,,,,,,GBR,,,,,,
TC,TCA,796,Turks and Caicos Islands,Îles Turks et Caïques,430,7.799523,0.0,America,Grand Turk (Cockburn Town),Grand Turk (Cockburn Town),21.466667,-71.13333,1,1,2.0,English,,,English,Turks And Caicos Creole English,,,,,,,GBR,,,,,,
TD,TCD,148,Chad,Tchad,1284005,426.20364,1.0,Africa,N'Djamena,Ndjamena,12.166667,14.983334,1,1,25.0,French,Arabic,,Arabic,,,,Ngambay,,,,FRA,,,,,,
TF,ATF,260,French Southern Antartic territories,Terres australes françaises,7829,33.280277,0.0,No,Dumont d'Urville (Terre Adélie),Dumont d'Urville (Terre Adélie),-66.666664,-140.0,1,1,3.0,French,,,French,,,,,,,,,,,,,,
TG,TGO,768,Togo,Togo,56785,89.629425,0.0,Africa,Lome,Lomé,6.1666665,1.35,1,1,25.0,French,,,French,Éwé,,,Kabiyé,,,,FRA,,,,,,
TH,THA,764,Thailand,Thaïlande,513115,269.42703,0.0,Asia,Bangkok,Bangkok,13.733334,100.5,1,1,25.0,Thai,,,Thai,,,,,,,,,,,,,,
TJ,TJK,762,Tajikistan,Tadjikistan,143095,142.28072,1.0,Asia,Dushanbe,Douchanbé,38.633335,68.85,1,1,25.0,Tajik,,,Tajik,,,,,,,,RUS,,,,,,
TK,TKL,772,Tokelau,Tokelaou,10,1.189416,0.0,Pacific,N.A.,N.A.,-9.0,-172.0,1,1,3.0,Tokelauan,English,,Tokelauan,English,,,,,,,GBR,NZL,,,,,
TM,TKM,795,Turkmenistan,Turkménistan,488100,262.77753,1.0,Asia,Ashgabat,Achgabat,37.95,58.383335,1,1,25.0,Turkmen,,,Turkmen,,,,,,,,RUS,,,,,,
TN,TUN,788,Tunisia,Tunisie,164150,152.38922,0.0,Africa,Tunis,Tunis,36.833332,10.216666,1,1,25.0,Arabic,French,,Arabic,,,,,,,,FRA,TUR,,,,,
TO,TON,776,Tonga,Tonga,748,10.286902,0.0,Pacific,Nuku'alofa,Nuku'alofa,-21.15,-175.23334,1,1,9.0,Tongan,English,,Tongan,,,,,,,,GBR,,,,,,
TP,TMP,626,East Timor,Timor Oriental,14874,45.872,0.0,Asia,Dili,Dili,-8.57,125.58,1,1,19.0,Tetum,Portuguese,,Tetum,Mambae,,,,,,,PRT,IDN,,,IDN,,
TR,TUR,792,Turkey,Turquie,780576,332.30847,0.0,Europe,Istambul,Istambul,41.033333,28.95,0,1,25.0,Turkish,,,Turkish,,,,Kurmanji,,,,,,,,,,
TR,TUR,792,Turkey,Turquie,780576,332.30847,0.0,Europe,Ankara,Ankara,39.93,32.85,1,0,25.0,Turkish,,,Turkish,,,,Kurmanji,,,,,,,,,,
TT,TTO,780,Trinidad and Tobago,Trinité-et-Tobago,5130,26.939684,0.0,America,Port-of-Spain,Port of Spain,10.633333,-61.516666,1,1,22.0,English,,,English,,,,Lesser Antillean Creole French,,,,GBR,,,,,,
TV,TUV,798,Tuvalu,Tuvalu,26,1.9178758,0.0,Pacific,Fongafale,Fongafale,-8.5,179.2,1,1,8.0,Tuvaluan,,,Tuvaluan,,,,,,,,GBR,,,,,,
TW,TWN,490,Taiwan,Taïwan,35875,71.24096,0.0,Asia,Taipei,Taipeh,25.083334,121.53333,1,1,25.0,Chinese,,,Chinese Hakka,Chinese Mandarin,Chinese Min Nan,,,,,,JPN,,,,CHN,,
TZ,TZA,834,"Tanzania, United Rep. of ",Tanzanie,945090,365.65405,0.0,Africa,Dar es Salaam,Dar es Salaam,-6.85,39.3,2,1,25.0,English,Swahili,,Swahili,,,,Sukuma,,,,GBR,,,,,,
TZ,TZA,834,"Tanzania, United Rep. of ",Tanzanie,945090,365.65405,0.0,Africa,Dar es Salaam,Dar es Salaam,-6.17,35.74,1,0,25.0,English,Swahili,,Swahili,,,,Sukuma,,,,GBR,,,,,,
UA,UKR,804,Ukraine,Ukraine,603677,292.2376,0.0,Europe,Kiev (Kyyiv),Kiev,50.416668,30.5,1,1,25.0,Ukrainian,,,Ukrainian,,,,,,,,RUS,,,,,,
UG,UGA,800,Uganda,Ouganda,241038,184.66159,1.0,Africa,Kampala,Kampala,0.33333334,32.583332,1,1,25.0,English,,,Ganda,,,,English,,,,GBR,,,,,,
US,USA,842,United States of America,Etats-Unis d'Amérique,9529106,1161.074,0.0,America,New York,New York,40.75,-74.0,0,1,25.0,English,,,English,,,,Spanish,,,,GBR,FRA,ESP,,,,
US,USA,842,United States of America,Etats-Unis d'Amérique,9529106,1161.074,0.0,America,"Washington, DC",Washington,38.867,-77.0,1,0,25.0,English,,,English,,,,Spanish,,,,GBR,FRA,ESP,,,,
UY,URY,858,Uruguay,Uruguay,176215,157.89023,0.0,America,Montevideo,Montevideo,-34.916668,-56.166668,1,1,25.0,Spanish,,,Spanish,,,,,,,,ESP,,,,BRA,,
UZ,UZB,860,Uzbekistan,Ouzbékistan,447400,251.5833,1.0,Asia,Tashkent (Toshkent),Tachkent,41.266666,69.21667,1,1,25.0,Uzbek,,,Uzbek,,,,,,,,RUS,,,,,,
VC,VCT,670,Saint Vincent and the Grenadines,Saint-Vincent-et-les Grenadines,389,7.418372,0.0,America,Kingstown,Kingstown,13.2,-61.233334,1,1,10.0,English,,,English,Windward Caribbean Creole English,,,,,,,GBR,,,,,,
VE,VEN,862,Venezuela,Venezuela,911930,359.182,0.0,America,Caracas,Caracas,10.583333,-66.933334,1,1,25.0,Spanish,,,Spanish,,,,,,,,ESP,,,,,,
VG,VGB,92,British Virgin Islands,Îles Vierges britanniques,153,4.6524267,0.0,America,Road Town,Roadtown,18.45,-64.61667,1,1,6.0,English,,,English,Virgin Islands Creole English,,,,,,,GBR,,,,,,
VN,VNM,704,Viet Nam,Viet Nam,331114,216.43256,0.0,Asia,Hanoi,Hanoï,21.016666,105.86667,1,1,25.0,Vietnamese,,,Vietnamese,,,,,,,,FRA,,,,,,
VU,VUT,548,Vanuatu,Vanuatu,14763,45.700516,0.0,Pacific,Port-Vila,Port-Vila,-17.75,168.3,1,1,8.0,English,French,Bismala,English,French,Bismala,,,,,,GBR,FRA,,,,,
WF,WLF,876,Wallis and Futuna,Îles Wallis et Futuna,274,6.2259994,0.0,Pacific,Mata-Utu (on Ile Uvea),Mata-Utu (on Ile Uvea),-13.3,-176.2,1,1,1.0,French,,,French,,,,,,,,FRA,,,,,,
WS,WSM,882,Samoa,Samoa,2842,20.051453,0.0,Pacific,Apia,Apia,-13.8,171.75,1,1,11.0,Samoan,English,,Samoan,English,,,,,,,DEU,NZL,,,,,
YE,YEM,887,Yemen,Yémen,547244,278.24304,0.0,Asia,Sanaa,Sanaa,15.4,44.233334,1,1,25.0,Arabic,,,Arabic,,,,,,,,GBR,TUR,,,,,
YU,YUG,891,Serbia and Montenegro,Serbie et Monténégro (ex-Yougoslavie),102173,120.22697,0.0,Europe,Belgrade,Belgrade,44.833332,20.5,1,1,25.0,Serbo-Croatian,,,Serbo-Croatian,,,,Albanian,,,,TUR,,,,,,
ZA,ZAF,711,South Africa,Afrique du Sud,1219912,415.4302,0.0,Africa,Cape Town,Le Cap,-33.933334,18.466667,2,1,25.0,English,,,Zoulou,Xhosa,English,,Afrikaans,Shoto,,,GBR,NLD,,,,,
ZA,ZAF,711,South Africa,Afrique du Sud,1219912,415.4302,0.0,Africa,Pretoria,Pretoria,-25.73,28.22,1,0,25.0,English,,,Zoulou,Xhosa,English,,Afrikaans,Shoto,,,GBR,NLD,,,,,
ZM,ZMB,894,Zambia,Zambie,752614,326.30215,1.0,Africa,Lusaka,Lusaka,-15.466666,28.266666,1,1,25.0,English,,,English,,,,Nyanja,Tonga,,,GBR,,,,,,
ZR,ZAR,180,Congo (Democratic Republic of the),"Congo, Rép. dém. du",2345410,576.02747,0.0,Africa,Kinshasa,Kinshasa,-4.3,15.3,1,1,25.0,French,,,Swahili,Lingala,,,Kikongo,Luba-Kasai,French,,BEL,,,,,,
ZW,ZWE,716,Zimbabwe,Zimbabwe,390759,235.11931,1.0,Africa,Harare,Harare,-17.833334,31.05,1,1,25.0,English,,,Shona,English,,,Ndebele,,,,GBR,,,,,,
